
---
duration: 300
slides:
  - type: Message
    msg: Merry Christmas Dad!
    background: 'linear-gradient(to bottom right, #ed8282, #82eda4)'
    duration: 5
  - type: SunMap
    duration: 15
    mapSource: opentopia
    dawnDuskDurationMins: 60
    weatherDuration: 3600
    originLocation:
      timezone: America/Kentucky/Louisville
      lat: 38.44
      lng: -85.61
    otherLocations:
      # family cities
      - name: San Francisco
        timezone: America/Los_Angeles
        labelLocation: west
        lat: 37.77
        lng: -122.39
      - name: Dallas
        timezone: America/Chicago
        labelLocation: south
        lat: 32.84
        lng: -96.78
      - name: DC
        timezone: America/New_York
        labelLocation: east
        lat: 38.87
        lng: -77.06

      # random cities: North America
      - name: Honolulu
        timezone: US/Hawaii
        labelLocation: south
        lat: 21.30
        lng: -157.86
      - name: Anchorage
        timezone: America/Anchorage
        labelLocation: north
        lat: 61.16
        lng: -149.93

      # random cities: Oceania
      - name: Sydney
        timezone: Australia/Sydney
        labelLocation: south
        lat: -33.89
        lng: 151.21
      - name: Auckland
        timezone: Pacific/Auckland
        labelLocation: south
        lat: -36.89
        lng: 174.79
      - name: South Pole
        timezone: Antarctica/South_Pole
        labelLocation: extra-north
        lat: -90.00
        lng: 0.00

      # random cities: asia
      - name: Seoul
        timezone: Asia/Seoul
        labelLocation: south
        lat: 37.54
        lng: 126.99
      - name: Kathmandu
        timezone: Asia/Kathmandu
        labelLocation: south
        lat: 27.71
        lng: 85.32
      - name: Novosibirsk
        timezone: Asia/Novosibirsk
        labelLocation: north
        lat: 55.00
        lng: 82.90
      - name: Petropavlovsk
        timezone: Asia/Novosibirsk
        labelLocation: south
        lat: 53.03
        lng: 158.66
      - name: Mecca
        timezone: Asia/Riyadh
        labelLocation: south
        lat: 21.42
        lng: 39.81

      # random cities: south america
      - name: Aunscion
        timezone: America/Asuncion
        labelLocation: east
        lat: -25.28
        lng: -57.63

      # random cities: europe
      - name: London
        timezone: Europe/London
        labelLocation: west
        lat: 51.51
        lng: -0.13
      - name: Moscow
        timezone: Europe/Moscow
        labelLocation: north
        lat: 55.76
        lng: 37.63

      # random cities: africa
      - name: Cape Town
        timezone: Africa/Johannesburg
        labelLocation: south
        lat: -34.03
        lng: 18.53
      - name: Timbuktu
        timezone: Africa/Timbuktu
        labelLocation: west
        lat: 16.77
        lng: -3.01

  - type: ExploreLivecam
    feedDuration: 30
    detailDuration: 10
    startInFactMode: true
    mapMaxZoom: 10
    mapMinZoom: 3
    duration: 60
    feedRefreshDuration: 7200 # recheck livefeeds every 2 hours